{"response_generated": "2014-11-24T22:57:42Z", "detections": [{"city": "Kempten", "name": "Exploit:JS/AnglerEK.D", "lat": "47.7167", "country": "DE", "type": "Exploit:JS/AnglerEK", "long": "10.3167"}, {"city": "London", "name": "Gen:Variant.Symmi.45380", "lat": "51.5142", "country": "GB", "type": "Gen:Variant", "long": "-0.0931"}, {"city": "Brighton", "name": "Gen:Variant.Graftor.146377", "lat": "50.8333", "country": "GB", "type": "Gen:Variant", "long": "-0.1500"}, {"city": "Riyadh", "name": "Suspicious:Android/Malware.1e8346!Online", "lat": "24.6537", "country": "SA", "type": "Suspicious:Android/Malware", "long": "46.7152"}, {"city": "Joinville", "name": "Suspicious:W32/Malware.88e8c412c8!Online", "lat": "-26.3000", "country": "BR", "type": "Suspicious:W32/Malware", "long": "-48.8333"}, {"city": "", "name": "Gen:Variant.Graftor.45638", "lat": "47.0000", "country": "HU", "type": "Gen:Variant", "long": "20.0000"}, {"city": "Guayaquil", "name": "Trojan.Generic.3570571", "lat": "-2.1667", "country": "EC", "type": "Trojan", "long": "-79.9000"}, {"city": "Mexico", "name": "Trojan:W32/Gen4332.d79ef587f6!Online", "lat": "19.4342", "country": "MX", "type": "Trojan:W32/Gen4332", "long": "-99.1386"}, {"city": "Curitiba", "name": "Gen:Variant.Strictor.68934", "lat": "-25.4167", "country": "BR", "type": "Gen:Variant", "long": "-49.2500"}, {"city": "", "name": "Trojan:HTML/Kilim.AQ", "lat": "62.0000", "country": "SE", "type": "Trojan:HTML/Kilim", "long": "15.0000"}, {"city": "Rutledge", "name": "Exploit:SWF/AnglerEK.G", "lat": "36.2451", "country": "US", "type": "Exploit:SWF/AnglerEK", "long": "-83.5262"}, {"city": "", "name": "Trojan.GenericKD.1972432", "lat": "46.0000", "country": "FR", "type": "Trojan", "long": "2.0000"}, {"city": "", "name": "Worm:INF/Autorun.gen!A", "lat": "36.0000", "country": "JP", "type": "Worm:INF/Autorun", "long": "138.0000"}, {"city": "", "name": "Exploit:JS/AstrumEK.B!405", "lat": "38.0000", "country": "US", "type": "Exploit:JS/AstrumEK", "long": "-97.0000"}, {"city": "", "name": "Exploit:Java/Majava.B", "lat": "38.0000", "country": "US", "type": "Exploit:Java/Majava", "long": "-97.0000"}, {"city": "Singapore", "name": "Trojan:Android/Feejar.A", "lat": "1.2931", "country": "SG", "type": "Trojan:Android/Feejar", "long": "103.8558"}, {"city": "Campbellsport", "name": "Exploit:JS/AstrumEK.B!h554", "lat": "43.6129", "country": "US", "type": "Exploit:JS/AstrumEK", "long": "-88.2905"}, {"city": "Pasadena", "name": "Exploit:JS/AstrumEK.B!407", "lat": "34.1695", "country": "US", "type": "Exploit:JS/AstrumEK", "long": "-118.1223"}, {"city": "New London", "name": "Suspicious:W32/Malware.1d790ac63e!Online", "lat": "44.4033", "country": "US", "type": "Suspicious:W32/Malware", "long": "-88.7862"}, {"city": "Helsinki", "name": "EICAR_Test_File", "lat": "60.1756", "country": "FI", "type": "EICAR_Test_File", "long": "24.9342"}, {"city": "Singapore", "name": "Suspicious:Android/PossiblyUnwanted.1deda09375!Online", "lat": "1.2931", "country": "SG", "type": "Suspicious:Android/PossiblyUnwanted", "long": "103.8558"}, {"city": "Hillsboro", "name": "Exploit:JS/AstrumEK.B!405", "lat": "45.5848", "country": "US", "type": "Exploit:JS/AstrumEK", "long": "-122.9117"}, {"city": "Portland", "name": "Exploit:SWF/Salama.M", "lat": "45.5234", "country": "US", "type": "Exploit:SWF/Salama", "long": "-122.6762"}, {"city": "Mexico", "name": "Gen:Trojan.Heur.VP2.8m0@aq5Qf!ci", "lat": "19.4342", "country": "MX", "type": "Gen:Trojan", "long": "-99.1386"}, {"city": "New London", "name": "Suspicious:W32/Malware.82baa4de9e!Online", "lat": "44.4033", "country": "US", "type": "Suspicious:W32/Malware", "long": "-88.7862"}, {"city": "Helsinki", "name": "EICAR_Test_File", "lat": "60.1756", "country": "FI", "type": "EICAR_Test_File", "long": "24.9342"}, {"city": "Alamogordo", "name": "Trojan:HTML/Kilim.AQ", "lat": "32.8995", "country": "US", "type": "Trojan:HTML/Kilim", "long": "-105.9603"}, {"city": "Mebane", "name": "Gen:Variant.Graftor.164998", "lat": "36.1399", "country": "US", "type": "Gen:Variant", "long": "-79.2665"}, {"city": "New London", "name": "Suspicious:W32/Malware.4738ed0e8f!Online", "lat": "44.4033", "country": "US", "type": "Suspicious:W32/Malware", "long": "-88.7862"}, {"city": "", "name": "Exploit:JS/AstrumEK.B!403", "lat": "38.0000", "country": "US", "type": "Exploit:JS/AstrumEK", "long": "-97.0000"}, {"city": "", "name": "Trojan:JS/Fbook.C", "lat": "-10.0000", "country": "BR", "type": "Trojan:JS/Fbook", "long": "-55.0000"}, {"city": "Joinville", "name": "Suspicious:W32/Malware.db630428fe!Online", "lat": "-26.3000", "country": "BR", "type": "Suspicious:W32/Malware", "long": "-48.8333"}, {"city": "Lincoln", "name": "Exploit:Java/Majava.A", "lat": "53.2333", "country": "GB", "type": "Exploit:Java/Majava", "long": "-0.5333"}, {"city": "Ashland", "name": "Trojan.GenericKD.1889462", "lat": "40.8684", "country": "US", "type": "Trojan", "long": "-82.3149"}, {"city": "Rugeley", "name": "Trojan.Script.618429", "lat": "52.7667", "country": "GB", "type": "Trojan", "long": "-1.9333"}, {"city": "Singapore", "name": "Trojan:Android/Smspay.b57148fdb1!Online", "lat": "1.2931", "country": "SG", "type": "Trojan:Android/Smspay", "long": "103.8558"}, {"city": "Kokkola", "name": "Trojan.Generic.12128695", "lat": "63.8333", "country": "FI", "type": "Trojan", "long": "23.1167"}, {"city": "Seoul", "name": "Gen:Variant.Strictor.59252", "lat": "37.5985", "country": "KR", "type": "Gen:Variant", "long": "126.9783"}, {"city": "Reading", "name": "Trojan.AgentWDCR.CIO", "lat": "51.4333", "country": "GB", "type": "Trojan", "long": "-1.0000"}, {"city": "Kokkola", "name": "Trojan.Generic.12012945", "lat": "63.8333", "country": "FI", "type": "Trojan", "long": "23.1167"}, {"city": "", "name": "Exploit:SWF/AnglerEK.G", "lat": "64.0000", "country": "FI", "type": "Exploit:SWF/AnglerEK", "long": "26.0000"}, {"city": "Ichinomiya", "name": "Gen:Variant.Strictor.39063", "lat": "35.3000", "country": "JP", "type": "Gen:Variant", "long": "136.8000"}, {"city": "Joinville", "name": "Suspicious:W32/Malware.54859d52e5!Online", "lat": "-26.3000", "country": "BR", "type": "Suspicious:W32/Malware", "long": "-48.8333"}, {"city": "Jakarta", "name": "Trojan.Script.613694", "lat": "-6.1744", "country": "ID", "type": "Trojan", "long": "106.8294"}, {"city": "", "name": "Exploit:JS/AstrumEK.B!403", "lat": "38.0000", "country": "US", "type": "Exploit:JS/AstrumEK", "long": "-97.0000"}, {"city": "Fort Wayne", "name": "Exploit:JS/AnglerEK.D", "lat": "41.1306", "country": "US", "type": "Exploit:JS/AnglerEK", "long": "-85.1289"}, {"city": "", "name": "Suspicious:Android/PossiblyUnwanted.8cbd581c77!Online", "lat": "42.8333", "country": "IT", "type": "Suspicious:Android/PossiblyUnwanted", "long": "12.8333"}, {"city": "Quito", "name": "Gen:Variant.Strictor.56646", "lat": "-0.2167", "country": "EC", "type": "Gen:Variant", "long": "-78.5000"}, {"city": "Norwalk", "name": "Exploit:JS/AstrumEK.B!406", "lat": "41.2213", "country": "US", "type": "Exploit:JS/AstrumEK", "long": "-82.5746"}, {"city": "Dayton", "name": "Exploit:JS/AstrumEK.B!411", "lat": "39.7589", "country": "US", "type": "Exploit:JS/AstrumEK", "long": "-84.1916"}, {"city": "London", "name": "Exploit:SWF/Salama.H!Beta", "lat": "51.5142", "country": "GB", "type": "Exploit:SWF/Salama", "long": "-0.0931"}, {"city": "Szczecin", "name": "Trojan.Msword.NQS", "lat": "53.4395", "country": "PL", "type": "Trojan", "long": "14.5939"}, {"city": "Saint Charles", "name": "Exploit:JS/AnglerEK.D", "lat": "38.7839", "country": "US", "type": "Exploit:JS/AnglerEK", "long": "-90.4812"}, {"city": "Saint Louis", "name": "Trojan.Sirefef.ABA", "lat": "38.6143", "country": "US", "type": "Trojan", "long": "-90.4444"}, {"city": "Saint Louis", "name": "Trojan.Generic.9689725", "lat": "38.6143", "country": "US", "type": "Trojan", "long": "-90.4444"}, {"city": "Sheffield", "name": "Exploit:JS/AstrumEK.B!409", "lat": "34.7566", "country": "US", "type": "Exploit:JS/AstrumEK", "long": "-87.6963"}, {"city": "Amman", "name": "Gen:Variant.Graftor.162429", "lat": "31.9500", "country": "JO", "type": "Gen:Variant", "long": "35.9333"}, {"city": "Medell\u00edn", "name": "Worm:W32/Downadup.gen!A", "lat": "6.2518", "country": "CO", "type": "Worm:W32/Downadup", "long": "-75.5636"}, {"city": "G\u00f6teborg", "name": "Gen:Variant.Symmi.43372", "lat": "57.7167", "country": "SE", "type": "Gen:Variant", "long": "11.9667"}, {"city": "", "name": "Suspicious:Android/PossiblyUnwanted.d2fcad2eae!Online", "lat": "54.0000", "country": "GB", "type": "Suspicious:Android/PossiblyUnwanted", "long": "-2.0000"}, {"city": "Voorschoten", "name": "Trojan:HTML/Kilim.AQ", "lat": "52.1310", "country": "NL", "type": "Trojan:HTML/Kilim", "long": "4.4658"}, {"city": "Georgetown", "name": "Exploit:JS/AnglerEK.D", "lat": "43.6500", "country": "CA", "type": "Exploit:JS/AnglerEK", "long": "-79.9333"}, {"city": "Curitiba", "name": "Gen:Variant.Taterf.1", "lat": "-25.4167", "country": "BR", "type": "Gen:Variant", "long": "-49.2500"}, {"city": "Augusta", "name": "Exploit:SWF/Salama.M", "lat": "33.3457", "country": "US", "type": "Exploit:SWF/Salama", "long": "-81.9722"}, {"city": "Gresham", "name": "Exploit:JS/AstrumEK.B!407", "lat": "45.4741", "country": "US", "type": "Exploit:JS/AstrumEK", "long": "-122.3787"}, {"city": "Walsall", "name": "Gen:Trojan.Heur.JP.jCZ@auxchOc", "lat": "52.6000", "country": "GB", "type": "Gen:Trojan", "long": "-2.0000"}, {"city": "Zurich", "name": "Gen:Variant.Jaik.4928", "lat": "47.3667", "country": "CH", "type": "Gen:Variant", "long": "8.5500"}, {"city": "Alfortville", "name": "Gen:Variant.Buzy.298", "lat": "48.8058", "country": "FR", "type": "Gen:Variant", "long": "2.4204"}, {"city": "Quito", "name": "Gen:Variant.Symmi.41444", "lat": "-0.2167", "country": "EC", "type": "Gen:Variant", "long": "-78.5000"}], "polling_interval": 120}
